[
  {
    "budgetTotal": 1000.0,
    "subtotalOfProperties": 850.0,
    "budgetRemaining": 150.0,
    "departureLocation": "Orlando, FL",
    "destination": "Atlanta, GA",
    "tripName": "Mimi's Wedding",
    "dateFrom": "12/10/16",
    "dateTo": "12/15/16",
    "numberOfDays": 6.0,
    "numberOfNights": 5.0,
    "planeTicketCost": 200.0,
    "dailyLodgingCost": 50.0,
    "dailyFoodCost": 50.0,
    "dailyOtherCost": 10.0,
    "oneTimeCost": 40.0,
    "totalLodgingCosts": 250.0,
    "totalFoodCosts": 300.0,
    "totalOtherDailyCosts": 60.0,
    "departureLat": "28.538335",
    "departureLng": "-81.379236",
    "destinationLat": "33.748995",
    "destinationLng": "-84.387982",
    "destinationImage": "atlanta"
  },
  {
    "budgetTotal": 600.0,
    "subtotalOfProperties": 520.0,
    "budgetRemaining": 80.0,
    "departureLocation": "Glendale, AZ",
    "destination": "Denver, CO",
    "tripName": "Jim's Graduation",
    "dateFrom": "11/1/16",
    "dateTo": "11/4/16",
    "numberOfDays": 3.0,
    "numberOfNights": 3.0,
    "planeTicketCost": 80.0,
    "dailyLodgingCost": 100.0,
    "dailyFoodCost": 30.0,
    "dailyOtherCost": 10.0,
    "oneTimeCost": 0.0,
    "totalLodgingCosts": 300.0,
    "totalFoodCosts": 90.0,
    "totalOtherDailyCosts": 30.0,
    "departureLat": "33.538652",
    "departureLng": "-112.185987",
    "destinationLat": "39.739236",
    "destinationLng": "-104.990251",
    "destinationImage": "denver"

  },
    {
    "budgetTotal": 450.0,
    "subtotalOfProperties": 310.0,
    "budgetRemaining": 140.0,
    "departureLocation": "St.Paul, MN",
    "destination": "Buffalo, NY",
    "tripName": "Work Trip",
    "dateFrom": "2/1/16",
    "dateTo": "2/3/16",
    "numberOfDays": 2.0,
    "numberOfNights": 1.0,
    "planeTicketCost": 140.0,
    "dailyLodgingCost": 50.0,
    "dailyFoodCost": 40.0,
    "dailyOtherCost": 10.0,
    "oneTimeCost": 20.0,
    "totalLodgingCosts": 50.0,
    "totalFoodCosts": 80.0,
    "totalOtherDailyCosts": 20.0,
    "departureLat": "44.953703",
    "departureLng": "-93.089958",
    "destinationLat": "42.886447",
    "destinationLng": "-78.878369",
    "destinationImage": "hotel-room-service"

  },
    {
    "budgetTotal": 2400.0,
    "subtotalOfProperties": 2200.0,
    "budgetRemaining": 200.0,
    "departureLocation": "Bakersfield, CA",
    "destination": "Charlotte, NC",
    "tripName": "Meet the parents",
    "dateFrom": "3/1/16",
    "dateTo": "3/12/16",
    "numberOfDays": 11.0,
    "numberOfNights": 10.0,
    "planeTicketCost": 100.0,
    "dailyLodgingCost": 120.0,
    "dailyFoodCost": 60.0,
    "dailyOtherCost": 30.0,
    "oneTimeCost": 20.0,
    "totalLodgingCosts": 1200.0,
    "totalFoodCosts": 600.0,
    "totalOtherDailyCosts": 300.0,
    "departureLat": "35.373292",
    "departureLng": "-119.018712",
    "destinationLat": "35.227087",
    "destinationLng": "-80.843127",
    "destinationImage": "japan-fall-countryside"

  },
    {
    "budgetTotal": 390.0,
    "subtotalOfProperties": 390.0,
    "budgetRemaining": 0.0,
    "departureLocation": "Portland, OR",
    "destination": "Durham, NC",
    "tripName": "Family Reunion",
    "dateFrom": "2/21/16",
    "dateTo": "2/24/16",
    "numberOfDays": 3.0,
    "numberOfNights": 2.0,
    "planeTicketCost": 80.0,
    "dailyLodgingCost": 80.0,
    "dailyFoodCost": 30.0,
    "dailyOtherCost": 0.0,
    "oneTimeCost": 60.0,
    "totalLodgingCosts": 160.0,
    "totalFoodCosts": 90.0,
    "totalOtherDailyCosts": 0.0,
    "departureLat": "45.523062",
    "departureLng": "-122.676482",
    "destinationLat": "35.994033",
    "destinationLng": "-78.898619",
    "destinationImage": "outside-cafe"

  },
    {
    "budgetTotal": 800.0,
    "subtotalOfProperties": 780.0,
    "budgetRemaining": 20.0,
    "departureLocation": "Dallas, TX",
    "destination": "Macon, GA",
    "tripName": "Shindig",
    "dateFrom": "3/1/16",
    "dateTo": "3/6/16",
    "numberOfDays": 5.0,
    "numberOfNights": 4.0,
    "planeTicketCost": 100.0,
    "dailyLodgingCost": 100.0,
    "dailyFoodCost": 40.0,
    "dailyOtherCost": 0.0,
    "oneTimeCost": 80.0,
    "totalLodgingCosts": 400.0,
    "totalFoodCosts": 200.0,
    "totalOtherDailyCosts": 0.0,
    "departureLat": "32.776664",
    "departureLng": "-96.796988",
    "destinationLat": "32.840695",
    "destinationLng": "-83.632402",
    "destinationImage": "waterfall"

  },
    {
    "budgetTotal": 550.0,
    "subtotalOfProperties": 540.0,
    "budgetRemaining": 10.0,
    "departureLocation": "Lima, Peru",
    "destination": "Huntington, NY",
    "tripName": "Vacay!",
    "dateFrom": "4/1/16",
    "dateTo": "4/3/16",
    "numberOfDays": 2.0,
    "numberOfNights": 1.0,
    "planeTicketCost": 90.0,
    "dailyLodgingCost": 150.0,
    "dailyFoodCost": 80.0,
    "dailyOtherCost": 20.0,
    "oneTimeCost": 100.0,
    "totalLodgingCosts": 150.0,
    "totalFoodCosts": 160.0,
    "totalOtherDailyCosts": 40.0,
    "departureLat": "-12.046374",
    "departureLng": "-77.042793",
    "destinationLat": "40.868154",
    "destinationLng": "-73.425676",
    "destinationImage": "fruit-market"

  },
    {
    "budgetTotal": 890.0,
    "subtotalOfProperties": 0.0,
    "budgetRemaining": 0.0,
    "departureLocation": "Fort Worth, TX",
    "destination": "Ankara, Turkey",
    "tripName": "School Trip",
    "dateFrom": "5/1/16",
    "dateTo": "5/7/16",
    "numberOfDays": 6.0,
    "numberOfNights": 5.0,
    "planeTicketCost": 160.0,
    "dailyLodgingCost": 80.0,
    "dailyFoodCost": 50.0,
    "dailyOtherCost": 0.0,
    "oneTimeCost": 100.0,
    "totalLodgingCosts": 400.0,
    "totalFoodCosts": 250.0,
    "totalOtherDailyCosts": 0.0,
    "departureLat": "32.755488",
    "departureLng": "-97.330766",
    "destinationLat": "39.933363",
    "destinationLng": "32.859742",
    "destinationImage": "turkey-hagio-sophia"

  },
    {
    "budgetTotal": 540.0,
    "subtotalOfProperties": 480.0,
    "budgetRemaining": 60.0,
    "departureLocation": "Modesto, CA",
    "destination": "Yokohama, Japan",
    "tripName": "Japan trip",
    "dateFrom": "6/1/16",
    "dateTo": "6/3/16",
    "numberOfDays": 2.0,
    "numberOfNights": 1.0,
    "planeTicketCost": 90.0,
    "dailyLodgingCost": 50.0,
    "dailyFoodCost": 30.0,
    "dailyOtherCost": 0.0,
    "oneTimeCost": 260.0,
    "totalLodgingCosts": 50.0,
    "totalFoodCosts": 60.0,
    "totalOtherDailyCosts": 0.0,
    "departureLat": "37.639097",
    "departureLng": "-120.996878",
    "destinationLat": "35.443708",
    "destinationLng": "139.638026",
    "destinationImage": "japan-temple-2"

  },
    {
    "budgetTotal": 590.0,
    "subtotalOfProperties": 590.0,
    "budgetRemaining": 0.0,
    "departureLocation": "Milwaukee, WI",
    "destination": "Mexico City, Mexico",
    "tripName": "Going on the lam",
    "dateFrom": "7/1/16",
    "dateTo": "7/4/16",
    "numberOfDays": 3.0,
    "numberOfNights": 3.0,
    "planeTicketCost": 140.0,
    "dailyLodgingCost": 100.0,
    "dailyFoodCost": 50.0,
    "dailyOtherCost": 0.0,
    "oneTimeCost": 0.0,
    "totalLodgingCosts": 300.0,
    "totalFoodCosts": 150.0,
    "totalOtherDailyCosts": 0.0,
    "departureLat": "43.038902",
    "departureLng": "-87.906474",
    "destinationLat": "19.432608",
    "destinationLng": "-99.133208",
    "destinationImage": "mojito"

  },
    {
    "budgetTotal": 10000.0,
    "subtotalOfProperties": 8700.0,
    "budgetRemaining": 1300.0,
    "departureLocation": "Nashville, TN",
    "destination": "Berlin, Germany",
    "tripName": "Music tour",
    "dateFrom": "6/1/16",
    "dateTo": "7/1/16",
    "numberOfDays": 30.0,
    "numberOfNights": 30.0,
    "planeTicketCost": 900.0,
    "dailyLodgingCost": 80.0,
    "dailyFoodCost": 70.0,
    "dailyOtherCost": 80.0,
    "oneTimeCost": 1800.0,
    "totalLodgingCosts": 2400.0,
    "totalFoodCosts": 2100.0,
    "totalOtherDailyCosts": 2400.0,
    "departureLat": "36.162664",
    "departureLng": "-86.781602",
    "destinationLat": "52.520007",
    "destinationLng": "13.404954",
    "destinationImage": "german-castle"

  },
    {
    "budgetTotal": 50.0,
    "subtotalOfProperties": 36.0,
    "budgetRemaining": 14.0,
    "departureLocation": "Cincinnati, OH",
    "destination": "Cincinnati, OH",
    "tripName": "Camping",
    "dateFrom": "9/1/16",
    "dateTo": "9/3/16",
    "numberOfDays": 2.0,
    "numberOfNights": 2.0,
    "planeTicketCost": 0.0,
    "dailyLodgingCost": 0.0,
    "dailyFoodCost": 8.0,
    "dailyOtherCost": 5.0,
    "oneTimeCost": 10.0,
    "totalLodgingCosts": 0.0,
    "totalFoodCosts": 16.0,
    "totalOtherDailyCosts": 10.0,
    "departureLat": "39.103118",
    "departureLng": "-84.512020",
    "destinationLat": "39.103118",
    "destinationLng": "-84.512020",
    "destinationImage": "cincinnati"

  }

]
